{
  "servers": [
    {
      "title":"London",
      "memory":0.5,
      "cpucores":1,
      "storage":0.25,
      "simultaneousjobs":1,
      "databases":["postgreSQL","MongoDB","Cassandra"],
      "location":"England",
      "support":"Yes",
      "security":"No",
      "hostname": "london.swift.example.com",
      "coordinates": {
        "lat": 51.507222,
        "lng": -0.1275
      }
    },
    {
      "title":"Brussels",
      "memory":10,
      "cpucores":10,
      "storage":100,
      "simultaneousjobs":10,
      "databases":["MySQL","Cassandra"],
      "location":"Germany",
      "support":"Yes",
      "security":"No",
      "hostname": "brussels.swift.example.com",
      "coordinates": {
        "lat": 50.85,
        "lng": 4.35
      }
    },
    {
      "title":"Amsterdam",
      "memory":4,
      "cpucores":1,
      "storage":1,
      "simultaneousjobs":2,
      "databases":[],
      "location":"Netherlands",
      "support":"No",
      "security":"No",
      "hostname": "amsterdam.swift.example.com",
      "coordinates": {
        "lat": 52.373056,
        "lng": 4.892222
      }
    },
    {
      "title":"Thales Paris",
      "memory":24,
      "cpucores":48,
      "storage":480,
      "simultaneousjobs":32,
      "databases":["MySQL","postgreSQL","MongoDB","Cassandra"],
      "location":"France",
      "support":"Yes",
      "security":"No",
      "hostname": "paris.swift.example.com",
      "coordinates": {
        "lat": 48.8567,
        "lng": 2.3508
      }
    },
    {
      "title":"TTY",
      "memory":8,
      "cpucores":4,
      "storage":10,
      "simultaneousjobs":12,
      "databases":[],
      "location":"Finland",
      "support":"No",
      "security":"No",
      "hostname": "tty.example.com",
      "coordinates": {
        "lat": 61.45,
        "lng": 23.856
      }
    },
    {
      "title":"Kumpulan kampus",
      "memory":32,
      "cpucores":64,
      "storage":640,
      "simultaneousjobs":48,
      "databases":["MongoDB","Cassandra"],
      "location":"Finland",
      "support":"No",
      "security":"No",
      "hostname": "kumpula.example.com",
      "coordinates": {
        "lat": 60.2,
        "lng": 24.96
      }
    },
    {
      "title":"F-Secure",
      "memory":16,
      "cpucores":8,
      "storage":40,
      "simultaneousjobs":"32",
      "databases":["MySQL","postgreSQL"],
      "location":"Finland",
      "support":"No",
      "security":"Yes",
      "hostname": "fsecure.example.com",
      "coordinates": {
        "lat": 60.162,
        "lng": 24.9
      }
    }
  ]
}
