{
  "servers": [
    {
      "hostname": "london.swift.example.com",
      "coordinates": {
        "lat": 51.507222,
        "lng": -0.1275
      }
    },
    {
      "hostname": "brussels.swift.example.com",
      "coordinates": {
        "lat": 50.85,
        "lng": 4.35
      }
    },
    {
      "hostname": "amsterdam.swift.example.com",
      "coordinates": {
        "lat": 52.373056,
        "lng": 4.892222
      }
    },
    {
      "hostname": "helsinki.swift.example.com",
      "coordinates": {
        "lat": 60.170833,
        "lng": 24.9375
      }
    },
    {
      "hostname": "paris.swift.example.com",
      "coordinates": {
        "lat": 48.8567,
        "lng": 2.3508
      }
    }
  ]
}
